{"type":"Topology","objects":{"cities":{"type":"GeometryCollection","geometries":[{"type":"Point","properties":{"NAME":"Augusta","STATE":"ME"},"coordinates":[999999,131493]},{"type":"Point","properties":{"NAME":"Pierre","STATE":"SD"},"coordinates":[445764,231973]},{"type":"Point","properties":{"NAME":"Rochester","STATE":"NY"},"coordinates":[866065,232108]},{"type":"Point","properties":{"NAME":"Buffalo","STATE":"NY"},"coordinates":[844172,250082]},{"type":"Point","properties":{"NAME":"Albany","STATE":"NY"},"coordinates":[939389,227872]},{"type":"Point","properties":{"NAME":"Worcester","STATE":"MA"},"coordinates":[977536,229290]},{"type":"Point","properties":{"NAME":"Boston","STATE":"MA"},"coordinates":[990451,219689]},{"type":"Point","properties":{"NAME":"Springfield","STATE":"MA"},"coordinates":[964142,241701]},{"type":"Point","properties":{"NAME":"Chicago","STATE":"IL"},"coordinates":[683868,328174]},{"type":"Point","properties":{"NAME":"Toledo","STATE":"OH"},"coordinates":[761827,322204]},{"type":"Point","properties":{"NAME":"Cleveland","STATE":"OH"},"coordinates":[797544,320984]},{"type":"Point","properties":{"NAME":"Philadelphia","STATE":"PA"},"coordinates":[928837,347016]},{"type":"Point","properties":{"NAME":"Akron","STATE":"OH"},"coordinates":[802518,337353]},{"type":"Point","properties":{"NAME":"Pittsburgh","STATE":"PA"},"coordinates":[834183,356140]},{"type":"Point","properties":{"NAME":"Harrisburg","STATE":"PA"},"coordinates":[894330,345157]},{"type":"Point","properties":{"NAME":"Trenton","STATE":"NJ"},"coordinates":[935327,333372]},{"type":"Point","properties":{"NAME":"Baltimore","STATE":"MD"},"coordinates":[904677,383548]},{"type":"Point","properties":{"NAME":"Topeka","STATE":"KS"},"coordinates":[531789,455947]},{"type":"Point","properties":{"NAME":"Saint Louis","STATE":"MO"},"coordinates":[640692,467855]},{"type":"Point","properties":{"NAME":"Wichita","STATE":"KS"},"coordinates":[498497,512161]},{"type":"Point","properties":{"NAME":"Richmond","STATE":"VA"},"coordinates":[897036,459846]},{"type":"Point","properties":{"NAME":"New Orleans","STATE":"LA"},"coordinates":[657109,827274]},{"type":"Point","properties":{"NAME":"Bismarck","STATE":"ND"},"coordinates":[441000,130847]},{"type":"Point","properties":{"NAME":"Montpelier","STATE":"VT"},"coordinates":[950805,154773]},{"type":"Point","properties":{"NAME":"Sioux Falls","STATE":"SD"},"coordinates":[512444,268716]},{"type":"Point","properties":{"NAME":"Concord","STATE":"NH"},"coordinates":[976151,189301]},{"type":"Point","properties":{"NAME":"Newark","STATE":"NJ"},"coordinates":[943078,308349]},{"type":"Point","properties":{"NAME":"Madison","STATE":"WI"},"coordinates":[648506,281706]},{"type":"Point","properties":{"NAME":"Grand Rapids","STATE":"MI"},"coordinates":[718219,276276]},{"type":"Point","properties":{"NAME":"Milwaukee","STATE":"WI"},"coordinates":[676400,279658]},{"type":"Point","properties":{"NAME":"Lansing","STATE":"MI"},"coordinates":[739600,281968]},{"type":"Point","properties":{"NAME":"Providence","STATE":"RI"},"coordinates":[987554,243910]},{"type":"Point","properties":{"NAME":"Yonkers","STATE":"NY"},"coordinates":[947052,298488]},{"type":"Point","properties":{"NAME":"Jersey City","STATE":"NJ"},"coordinates":[944903,307983]},{"type":"Point","properties":{"NAME":"Columbus","STATE":"OH"},"coordinates":[778348,390122]},{"type":"Point","properties":{"NAME":"Cincinnati","STATE":"OH"},"coordinates":[751364,431281]},{"type":"Point","properties":{"NAME":"Carson City","STATE":"NV"},"coordinates":[61316,357478]},{"type":"Point","properties":{"NAME":"Overland Park","STATE":"KS"},"coordinates":[551719,458423]},{"type":"Point","properties":{"NAME":"Newport News","STATE":"VA"},"coordinates":[920492,476637]},{"type":"Point","properties":{"NAME":"Norfolk","STATE":"VA"},"coordinates":[924038,481059]},{"type":"Point","properties":{"NAME":"Virginia Beach","STATE":"VA"},"coordinates":[930125,478725]},{"type":"Point","properties":{"NAME":"Chesapeake","STATE":"VA"},"coordinates":[924391,482122]},{"type":"Point","properties":{"NAME":"Detroit","STATE":"MI"},"coordinates":[769099,292647]},{"type":"Point","properties":{"NAME":"Hartford","STATE":"CT"},"coordinates":[964515,256023]},{"type":"Point","properties":{"NAME":"Dover","STATE":"DE"},"coordinates":[926368,381765]},{"type":"Point","properties":{"NAME":"Annapolis","STATE":"MD"},"coordinates":[908640,395498]},{"type":"Point","properties":{"NAME":"Washington","STATE":"DC"},"coordinates":[898523,402376]},{"type":"Point","properties":{"NAME":"Arlington","STATE":"VA"},"coordinates":[897620,402870]},{"type":"Point","properties":{"NAME":"Charleston","STATE":"WV"},"coordinates":[811027,450335]},{"type":"Point","properties":{"NAME":"Aurora","STATE":"IL"},"coordinates":[671370,333602]},{"type":"Point","properties":{"NAME":"Des Moines","STATE":"IA"},"coordinates":[571010,348808]},{"type":"Point","properties":{"NAME":"Minneapolis","STATE":"MN"},"coordinates":[575079,208463]},{"type":"Point","properties":{"NAME":"Fort Wayne","STATE":"IN"},"coordinates":[733650,350128]},{"type":"Point","properties":{"NAME":"New York","STATE":"NY"},"coordinates":[946513,305949]},{"type":"Point","properties":{"NAME":"Kansas City","STATE":"MO"},"coordinates":[553498,453487]},{"type":"Point","properties":{"NAME":"Jefferson City","STATE":"MO"},"coordinates":[601523,473153]},{"type":"Point","properties":{"NAME":"Saint Paul","STATE":"MN"},"coordinates":[578201,209784]},{"type":"Point","properties":{"NAME":"Rockford","STATE":"IL"},"coordinates":[655731,314255]},{"type":"Point","properties":{"NAME":"Omaha","STATE":"NE"},"coordinates":[526618,363948]},{"type":"Point","properties":{"NAME":"Lincoln","STATE":"NE"},"coordinates":[512563,382955]},{"type":"Point","properties":{"NAME":"Springfield","STATE":"IL"},"coordinates":[649650,417912]},{"type":"Point","properties":{"NAME":"Springfield","STATE":"MO"},"coordinates":[580167,531086]},{"type":"Point","properties":{"NAME":"Frankfort","STATE":"KY"},"coordinates":[747397,470382]},{"type":"Point","properties":{"NAME":"Greensboro","STATE":"NC"},"coordinates":[857307,534381]},{"type":"Point","properties":{"NAME":"Durham","STATE":"NC"},"coordinates":[875772,532455]},{"type":"Point","properties":{"NAME":"Fayetteville","STATE":"NC"},"coordinates":[880555,570890]},{"type":"Point","properties":{"NAME":"Atlanta","STATE":"GA"},"coordinates":[771097,652486]},{"type":"Point","properties":{"NAME":"Birmingham","STATE":"AL"},"coordinates":[720766,670915]},{"type":"Point","properties":{"NAME":"Baton Rouge","STATE":"LA"},"coordinates":[632490,808983]},{"type":"Point","properties":{"NAME":"Fort Lauderdale","STATE":"FL"},"coordinates":[892731,942105]},{"type":"Point","properties":{"NAME":"Knoxville","STATE":"TN"},"coordinates":[773667,559232]},{"type":"Point","properties":{"NAME":"Raleigh","STATE":"NC"},"coordinates":[882085,539992]},{"type":"Point","properties":{"NAME":"Charlotte","STATE":"NC"},"coordinates":[839453,574842]},{"type":"Point","properties":{"NAME":"Chattanooga","STATE":"TN"},"coordinates":[747914,602575]},{"type":"Point","properties":{"NAME":"Huntsville","STATE":"AL"},"coordinates":[722249,620142]},{"type":"Point","properties":{"NAME":"Columbia","STATE":"SC"},"coordinates":[840496,626238]},{"type":"Point","properties":{"NAME":"Columbus","STATE":"GA"},"coordinates":[762318,708040]},{"type":"Point","properties":{"NAME":"Jackson","STATE":"MS"},"coordinates":[650978,730663]},{"type":"Point","properties":{"NAME":"Montgomery","STATE":"AL"},"coordinates":[734442,716868]},{"type":"Point","properties":{"NAME":"Mobile","STATE":"AL"},"coordinates":[700587,791511]},{"type":"Point","properties":{"NAME":"Jacksonville","STATE":"FL"},"coordinates":[841769,779860]},{"type":"Point","properties":{"NAME":"Orlando","STATE":"FL"},"coordinates":[854878,851497]},{"type":"Point","properties":{"NAME":"Port Saint Lucie","STATE":"FL"},"coordinates":[883081,896028]},{"type":"Point","properties":{"NAME":"Cape Coral","STATE":"FL"},"coordinates":[849564,934847]},{"type":"Point","properties":{"NAME":"Pembroke Pines","STATE":"FL"},"coordinates":[891383,947409]},{"type":"Point","properties":{"NAME":"Miami","STATE":"FL"},"coordinates":[893044,956448]},{"type":"Point","properties":{"NAME":"Hialeah","STATE":"FL"},"coordinates":[890748,953612]},{"type":"Point","properties":{"NAME":"Lexington","STATE":"KY"},"coordinates":[756105,475047]},{"type":"Point","properties":{"NAME":"Winston-Salem","STATE":"NC"},"coordinates":[848016,535763]},{"type":"Point","properties":{"NAME":"Memphis","STATE":"TN"},"coordinates":[649291,612136]},{"type":"Point","properties":{"NAME":"Little Rock","STATE":"AR"},"coordinates":[603093,632703]},{"type":"Point","properties":{"NAME":"Shreveport","STATE":"LA"},"coordinates":[573485,727309]},{"type":"Point","properties":{"NAME":"Tallahassee","STATE":"FL"},"coordinates":[783868,788264]},{"type":"Point","properties":{"NAME":"Saint Petersburg","STATE":"FL"},"coordinates":[828532,889671]},{"type":"Point","properties":{"NAME":"Tampa","STATE":"FL"},"coordinates":[832881,881343]},{"type":"Point","properties":{"NAME":"Boise City","STATE":"ID"},"coordinates":[153497,202949]},{"type":"Point","properties":{"NAME":"Cheyenne","STATE":"WY"},"coordinates":[356380,356277]},{"type":"Point","properties":{"NAME":"Denver","STATE":"CO"},"coordinates":[349810,413851]},{"type":"Point","properties":{"NAME":"Aurora","STATE":"CO"},"coordinates":[352765,414703]},{"type":"Point","properties":{"NAME":"Colorado Springs","STATE":"CO"},"coordinates":[350818,451877]},{"type":"Point","properties":{"NAME":"Bakersfield","STATE":"CA"},"coordinates":[52062,516548]},{"type":"Point","properties":{"NAME":"Amarillo","STATE":"TX"},"coordinates":[404164,609374]},{"type":"Point","properties":{"NAME":"Albuquerque","STATE":"NM"},"coordinates":[303862,601115]},{"type":"Point","properties":{"NAME":"Corona","STATE":"CA"},"coordinates":[72666,588521]},{"type":"Point","properties":{"NAME":"Chandler","STATE":"AZ"},"coordinates":[189095,649901]},{"type":"Point","properties":{"NAME":"Anaheim","STATE":"CA"},"coordinates":[65251,587456]},{"type":"Point","properties":{"NAME":"Irvine","STATE":"CA"},"coordinates":[66159,594876]},{"type":"Point","properties":{"NAME":"Chula Vista","STATE":"CA"},"coordinates":[75592,642218]},{"type":"Point","properties":{"NAME":"Arlington","STATE":"TX"},"coordinates":[501619,718481]},{"type":"Point","properties":{"NAME":"Irving","STATE":"TX"},"coordinates":[505059,715289]},{"type":"Point","properties":{"NAME":"Dallas","STATE":"TX"},"coordinates":[508105,716620]},{"type":"Point","properties":{"NAME":"Austin","STATE":"TX"},"coordinates":[486810,820387]},{"type":"Point","properties":{"NAME":"Corpus Christi","STATE":"TX"},"coordinates":[493560,922239]},{"type":"Point","properties":{"NAME":"Brownsville","STATE":"TX"},"coordinates":[490489,999999]},{"type":"Point","properties":{"NAME":"Helena","STATE":"MT"},"coordinates":[242708,104732]},{"type":"Point","properties":{"NAME":"Olympia","STATE":"WA"},"coordinates":[58425,17986]},{"type":"Point","properties":{"NAME":"Portland","STATE":"OR"},"coordinates":[51465,79651]},{"type":"Point","properties":{"NAME":"Eugene","STATE":"OR"},"coordinates":[33720,134706]},{"type":"Point","properties":{"NAME":"Reno","STATE":"NV"},"coordinates":[62781,342351]},{"type":"Point","properties":{"NAME":"Elk Grove","STATE":"CA"},"coordinates":[25546,374823]},{"type":"Point","properties":{"NAME":"Modesto","STATE":"CA"},"coordinates":[27565,408933]},{"type":"Point","properties":{"NAME":"Fremont","STATE":"CA"},"coordinates":[7662,404073]},{"type":"Point","properties":{"NAME":"Oakland","STATE":"CA"},"coordinates":[3996,391325]},{"type":"Point","properties":{"NAME":"Fresno","STATE":"CA"},"coordinates":[45705,454968]},{"type":"Point","properties":{"NAME":"Henderson","STATE":"NV"},"coordinates":[137277,518854]},{"type":"Point","properties":{"NAME":"North Las Vegas","STATE":"NV"},"coordinates":[135367,511467]},{"type":"Point","properties":{"NAME":"Las Vegas","STATE":"NV"},"coordinates":[134846,512312]},{"type":"Point","properties":{"NAME":"Fontana","STATE":"CA"},"coordinates":[76633,580732]},{"type":"Point","properties":{"NAME":"Ontario","STATE":"CA"},"coordinates":[72023,580258]},{"type":"Point","properties":{"NAME":"Rancho Cucamonga","STATE":"CA"},"coordinates":[73463,578956]},{"type":"Point","properties":{"NAME":"Oklahoma City","STATE":"OK"},"coordinates":[493483,604548]},{"type":"Point","properties":{"NAME":"Oxnard","STATE":"CA"},"coordinates":[41516,562749]},{"type":"Point","properties":{"NAME":"Glendale","STATE":"CA"},"coordinates":[60075,572364]},{"type":"Point","properties":{"NAME":"Long Beach","STATE":"CA"},"coordinates":[59177,588069]},{"type":"Point","properties":{"NAME":"Los Angeles","STATE":"CA"},"coordinates":[59766,576105]},{"type":"Point","properties":{"NAME":"Palmdale","STATE":"CA"},"coordinates":[65530,555769]},{"type":"Point","properties":{"NAME":"Lancaster","STATE":"CA"},"coordinates":[65825,550811]},{"type":"Point","properties":{"NAME":"Riverside","STATE":"CA"},"coordinates":[76631,586655]},{"type":"Point","properties":{"NAME":"Moreno Valley","STATE":"CA"},"coordinates":[79954,588548]},{"type":"Point","properties":{"NAME":"Glendale","STATE":"AZ"},"coordinates":[182865,638402]},{"type":"Point","properties":{"NAME":"Mesa","STATE":"AZ"},"coordinates":[189984,645250]},{"type":"Point","properties":{"NAME":"Peoria","STATE":"AZ"},"coordinates":[181973,636387]},{"type":"Point","properties":{"NAME":"Phoenix","STATE":"AZ"},"coordinates":[184819,642745]},{"type":"Point","properties":{"NAME":"Garden Grove","STATE":"CA"},"coordinates":[64331,589730]},{"type":"Point","properties":{"NAME":"Huntington Beach","STATE":"CA"},"coordinates":[62464,593875]},{"type":"Point","properties":{"NAME":"Lubbock","STATE":"TX"},"coordinates":[401047,677574]},{"type":"Point","properties":{"NAME":"Oceanside","STATE":"CA"},"coordinates":[72603,617464]},{"type":"Point","properties":{"NAME":"Plano","STATE":"TX"},"coordinates":[510464,706819]},{"type":"Point","properties":{"NAME":"Fort Worth","STATE":"TX"},"coordinates":[497044,718814]},{"type":"Point","properties":{"NAME":"Garland","STATE":"TX"},"coordinates":[511730,711285]},{"type":"Point","properties":{"NAME":"Grand Prairie","STATE":"TX"},"coordinates":[503991,718097]},{"type":"Point","properties":{"NAME":"El Paso","STATE":"TX"},"coordinates":[297791,739036]},{"type":"Point","properties":{"NAME":"Houston","STATE":"TX"},"coordinates":[539619,841693]},{"type":"Point","properties":{"NAME":"Laredo","STATE":"TX"},"coordinates":[445120,932319]},{"type":"Point","properties":{"NAME":"Spokane","STATE":"WA"},"coordinates":[155183,32058]},{"type":"Point","properties":{"NAME":"Seattle","STATE":"WA"},"coordinates":[72011,0]},{"type":"Point","properties":{"NAME":"Tacoma","STATE":"WA"},"coordinates":[67650,13071]},{"type":"Point","properties":{"NAME":"Vancouver","STATE":"WA"},"coordinates":[52540,75200]},{"type":"Point","properties":{"NAME":"Salem","STATE":"OR"},"coordinates":[41072,99767]},{"type":"Point","properties":{"NAME":"Salt Lake City","STATE":"UT"},"coordinates":[220211,343589]},{"type":"Point","properties":{"NAME":"Santa Rosa","STATE":"CA"},"coordinates":[0,361921]},{"type":"Point","properties":{"NAME":"Sacramento","STATE":"CA"},"coordinates":[24374,366843]},{"type":"Point","properties":{"NAME":"Stockton","STATE":"CA"},"coordinates":[24023,393639]},{"type":"Point","properties":{"NAME":"San Francisco","STATE":"CA"},"coordinates":[913,391192]},{"type":"Point","properties":{"NAME":"San Jose","STATE":"CA"},"coordinates":[8023,413273]},{"type":"Point","properties":{"NAME":"Salinas","STATE":"CA"},"coordinates":[8112,441923]},{"type":"Point","properties":{"NAME":"Tulsa","STATE":"OK"},"coordinates":[525085,576382]},{"type":"Point","properties":{"NAME":"Santa Fe","STATE":"NM"},"coordinates":[320275,578754]},{"type":"Point","properties":{"NAME":"San Bernardino","STATE":"CA"},"coordinates":[79716,581177]},{"type":"Point","properties":{"NAME":"Santa Clarita","STATE":"CA"},"coordinates":[55691,560018]},{"type":"Point","properties":{"NAME":"Scottsdale","STATE":"AZ"},"coordinates":[188754,641255]},{"type":"Point","properties":{"NAME":"Tempe","STATE":"AZ"},"coordinates":[188132,645065]},{"type":"Point","properties":{"NAME":"Gilbert","STATE":"AZ"},"coordinates":[190393,648286]},{"type":"Point","properties":{"NAME":"Santa Ana","STATE":"CA"},"coordinates":[65684,591449]},{"type":"Point","properties":{"NAME":"San Diego","STATE":"CA"},"coordinates":[74488,638615]},{"type":"Point","properties":{"NAME":"Tucson","STATE":"AZ"},"coordinates":[203968,699408]},{"type":"Point","properties":{"NAME":"San Antonio","STATE":"TX"},"coordinates":[469617,854590]},{"type":"Point","properties":{"NAME":"Juneau","STATE":"AK"},"coordinates":[161824,927015]},{"type":"Point","properties":{"NAME":"Anchorage","STATE":"AK"},"coordinates":[88603,905547]},{"type":"Point","properties":{"NAME":"Boise","STATE":"ID"},"coordinates":[154067,202536]},{"type":"Point","properties":{"NAME":"Indianapolis","STATE":"IN"},"coordinates":[717661,409976]},{"type":"Point","properties":{"NAME":"Louisville","STATE":"KY"},"coordinates":[729642,471364]},{"type":"Point","properties":{"NAME":"Honolulu","STATE":"HI"},"coordinates":[263767,914478]},{"type":"Point","properties":{"NAME":"Nashville","STATE":"TN"},"coordinates":[714513,561318]},{"type":"Point","properties":{"NAME":"The Bronx","STATE":"NY"},"coordinates":[948148,301547]},{"type":"Point","properties":{"NAME":"Manhattan","STATE":"NY"},"coordinates":[946668,304951]},{"type":"Point","properties":{"NAME":"Brooklyn","STATE":"NY"},"coordinates":[947775,310234]},{"type":"Point","properties":{"NAME":"Queens","STATE":"NY"},"coordinates":[950035,305094]},{"type":"Point","properties":{"NAME":"Staten Island","STATE":"NY"},"coordinates":[944402,314364]}]}},"arcs":[],"transform":{"scale":[0.000726833565045953,0.000452609454685985],"translate":[106.76329797246132,37.085289739283894]}}